,business_id,categories,city,latitude,longitude,name,review_count,stars
0,2rgQ1TULwVoY7TnUlnH7Yw,"[Asian Fusion, Chinese, Japanese, Restaurants]",Charlotte,35.2949318,-80.7474815,Taiyo Pacific and Sushi Bar,5,4.0
1,XaTts7L8g57_odPEFuwkOw,"[Chinese, Restaurants]",Pittsburgh,40.4426201,-79.8854317,Chen's Wok,3,3.5
2,K0VNhFhaOrO3CypCqofjwA,"[Restaurants, Chinese]",Charlotte,35.0482549,-80.8162405,MA MA Wok,25,3.0
3,98gLNkYYJCg4f_uJ7o2wBg,"[Restaurants, Chinese]",Charlotte,35.220624,-80.8098575,Hong Kong,16,2.5
4,5aGYZbjkXpCecz4QH2ZKFg,"[Chinese, Buffets, Restaurants]",Charlotte,35.1457297,-80.9365337,Dragon Buffet,59,3.5
5,SBPttAVjzEnN3VE6sKiaMg,"[Restaurants, Chinese]",Charlotte,35.061319,-80.814423,Jo Jo China Bistro,35,3.5
6,Oy2WnPyiOlPFvPKMIuOC8w,"[Restaurants, Asian Fusion, Japanese, Food Delivery Services, Korean, Food, Chinese, Buffets]",Charlotte,35.0950429,-80.864143,Tin Tin,173,3.0
7,5li4Wxd__uYGrgB8_n_uzw,"[Chinese, Restaurants]",Charlotte,35.3026124,-80.9872958,Bamboo Garden,9,3.5
8,Iy-UNkwa3j9MSeG_SZhUvg,"[Health & Medical, Acupuncture, Traditional Chinese Medicine]",Pittsburgh,40.4344721,-79.923045,Jennifer Whiteside,3,5.0
9,YjPWt-V5oMkakdRWrALb8g,"[Ethnic Food, Specialty Food, Restaurants, Chinese, Dim Sum, Food, Imported Food]",Charlotte,35.1626388384,-80.7380765199,Honey Bun's Cafeteria,27,4.0
10,BIqsItY0vyOshMpJ0I4cPg,"[Chinese, Restaurants]",Pittsburgh,40.4378528,-79.9195345,How Lee Chinese Food,194,4.0
11,Y24q_yO23zqY_y-QWOX-XA,"[Seafood, Diners, Greek, Chinese, American (New), Food, Restaurants]",Charlotte,35.35253,-80.851337,Showmars - Northlake Mall,5,3.5
12,N2M0WyGCyTV5jMOYPH7odA,"[Chinese, Asian Fusion, Restaurants, Sushi Bars, Japanese]",Charlotte,35.117274,-80.856801,Umai Sushi & Asian Bistro,68,4.0
13,tLSgXuy0g8nxX6Xgb7nvrw,"[Restaurants, Chinese]",Charlotte,35.3171014,-80.74022,Lotus Buffet,31,3.0
14,-Is6Ney1wmsJAjvDdkaaaQ,"[Restaurants, Chinese]",Pittsburgh,40.4426682,-79.8856765,New Lucky,4,3.0
15,X4CRPHvv-33kjxVJISZpUg,"[Sushi Bars, Chinese, Restaurants]",Pittsburgh,40.4454519,-79.9485255,Little Asia,75,2.5
16,sReFrTIJ92iDprWD8dKAuw,"[Chinese, Szechuan, Restaurants]",Pittsburgh,40.4268042,-80.0551196,Phong May House,21,3.0
17,ZJufvkLNtlAsQU9h_ttdNg,"[Chinese, Restaurants]",Charlotte,35.319499,-80.952736,Chinatown,12,2.0
18,USninqjSauwQQ2T_FlkIMw,"[Chinese, Cocktail Bars, Sushi Bars, Restaurants, American (New), Asian Fusion, Bars, Nightlife]",Pittsburgh,40.4287193,-79.9769083,M&J Bistro,3,4.5
19,7Nz4kTghhicjsR23GYMlLg,"[Chinese, Restaurants]",Charlotte,35.1068968,-80.8068567,Jade Dragon,49,4.0
20,pe20N--YSUZlKYa-WaSfJA,"[Restaurants, Chinese, Buffets, Japanese, Sushi Bars]",Charlotte,35.1972547,-80.7693723,China Buffet,45,3.5
21,HzGeL_H3rkm5W9DkN9FQBw,"[Restaurants, Chinese]",Charlotte,35.2158469,-80.883922,Golden Wok,3,3.5
22,pRfIJ6zurjEsWmJheDOP6A,"[Japanese, Chinese, Restaurants]",Pittsburgh,40.3434382,-79.9690533,Pan Asia,23,3.5
23,YaGkCO51sV6MLavJ3XUmWw,"[Chinese, Restaurants]",Charlotte,35.1725655325,-80.7087398215,China Fun,15,3.0
24,jrlkSj1TR6HWBaOJ4AzwKw,"[Chinese, Restaurants, Sushi Bars, Dim Sum]",Pittsburgh,40.4358767,-79.92287,Pacific Ring,15,3.0
25,l_pR3x7v2mvE3luVdmGuoQ,"[Chinese, Restaurants]",Pittsburgh,40.4541975,-79.947105,Orient Kitchen,53,3.0
26,WuiX9mOytF_8TXrR4ERQJw,"[Chinese, Restaurants]",Charlotte,35.1474098308,-80.7457220927,Shun Jing,3,4.5
27,hwe7f0QthkND-H4Ekg37qw,"[Asian Fusion, Chinese, Restaurants]",Pittsburgh,40.4326061,-79.9233686,New Dumpling And Sushi House,60,3.0
28,cnRMezUuLesmJHruUpAECA,"[Asian Fusion, Restaurants, Chinese]",Charlotte,35.2283649,-80.842652,Wok Bar,13,2.5
29,JQWIZ8MT-VGZzO5W5XCB5Q,"[Chinese, Restaurants]",Charlotte,35.2124561,-80.8277678,88 China Bistro,63,3.5
30,DXP3MbE8srQITLlAuS45aQ,"[Szechuan, Restaurants, Chinese]",Pittsburgh,40.4402935,-79.9562773,Hunan Bar,44,4.0
31,NYMUlUYYEb3H0nKsauj-yw,"[Restaurants, Chinese, Japanese]",Pittsburgh,40.4415702,-79.9573067,Sushi Boat,47,3.5
32,2FWFAqM-jqKUU8WqHSp-LQ,"[Chinese, Restaurants]",Charlotte,35.0227542,-80.8468114,Asian One,21,3.5
33,NdqDt4c2ZWpGTUWvcDDKkw,"[Restaurants, Chinese, Food]",Pittsburgh,40.4610218,-79.922675,Yen's Gourmet,18,2.0
34,a5xUI7TvsNhM5gZr6KowDg,"[Chinese, Restaurants]",Pittsburgh,40.5465182,-80.0194404,Sesame Inn,81,3.5
35,XUDOc980cjB0PZvVS-T6Eg,"[Asian Fusion, Restaurants, Chinese, Sushi Bars]",Pittsburgh,40.4888872,-79.874634,Jimmy Wans,78,3.5
36,0iJcWcDjaC4CVpR0uQFe5Q,"[Chinese, Restaurants]",Charlotte,35.161012,-80.7400121,Empress of China II,5,2.5
37,jDehhKtVZa62k32WHbnc2A,"[Restaurants, Szechuan, Chinese, Food Delivery Services, Food]",Pittsburgh,40.5533580189,-80.0158953356,China Star,42,3.5
38,5qtc1s-TKdgzPccKwY4SRw,"[Chinese, Restaurants]",Pittsburgh,40.4274093,-79.9382045,Silk Pagoda Restaurant,15,3.0
39,HCvSXTYw0WoszrJlffsRSg,"[Restaurants, Chinese]",Charlotte,35.2369429,-80.8743453,Hong Phat Restaurant,7,4.0
40,gwo0iQlgQIKGXGTJYqWc7w,"[Restaurants, Chinese]",Charlotte,35.2723113791,-80.9623912796,Jin Jin Chinese Restaurant,17,3.0
41,SlQNMsVEOSxN-ciIn93LOw,"[Chinese, Restaurants]",Charlotte,35.3102425,-80.7493891,House of Leng,70,3.5
42,39AOOQM4Ff6rWXW8b9ZPvw,"[Sushi Bars, Buffets, Chinese, Restaurants]",Charlotte,35.3042746,-80.7487266,Chen's Bistro,10,2.0
43,3v1c2BsFFcWlpV3S3LS8dA,"[Restaurants, Chinese]",Charlotte,35.1998353,-80.8252561,Taipei Express,50,3.5
44,-qWLEeASD3h1gl9qLipWEQ,"[Restaurants, Chinese]",Charlotte,35.210872,-80.687363,Wok & Roll Chinese Fast Food,3,2.5
45,WUiDaFQRZ8wKYGLvmjFjAw,"[Sushi Bars, Restaurants, Buffets, Chinese]",Charlotte,35.306173,-80.752672,China Buffet,65,3.5
46,Mi1IdbjqjGoYK09oDu8JVw,"[Chinese, Restaurants]",Charlotte,35.189833,-80.9219492,Yu Yu's Chinese Grill,9,3.0
47,G6_M3Dg-gjwVIbRGLIRBkw,"[Restaurants, Chinese]",Charlotte,35.140787,-80.740696,Chopstick,14,3.0
48,I5cGJJw5-VXJtxO58WfuLA,"[Restaurants, Chinese]",Charlotte,35.2892879,-80.7976473,China Inn,7,3.0
49,HDv-KchmLSlRr5MXxRkNqQ,"[Restaurants, Chinese, Sushi Bars]",Charlotte,35.204511,-80.8241075,Ginbu 401,134,3.5
50,Sp8DfXkAlaAACI2WQrvhIQ,"[Restaurants, Asian Fusion, Chinese, Food]",Charlotte,35.1480979,-80.9248119,China Fun,5,3.0
51,oEHjXUvJnYf144QyAvvY2w,"[Health & Medical, Traditional Chinese Medicine]",Pittsburgh,40.4544103,-79.9791143,Ming Yip Acupuncture & Herbal Therapy,3,5.0
52,pXqyJQISv5N_9Of5Nnfs6g,"[Chinese, Restaurants]",Charlotte,35.148102,-80.92483,Oriental Cuisine,6,3.0
53,ZlrHrg7jrbO6blqwfa0MkQ,"[Restaurants, Chinese]",Charlotte,35.1473609,-80.833041,Baoding,106,4.0
54,N2PlDjUJVfOJzsPzY0Au1w,"[Restaurants, Buffets, Chinese]",Charlotte,35.165117,-80.8797953,China King Super Buffet,9,2.0
55,KzLjbXEDH1e1WrfzrrzZKw,"[Chinese, Restaurants]",Pittsburgh,40.439226,-80.0017249,Mandarin Gourmet,46,3.0
56,Ef9crW61OYp2UJ0ysi3nEw,"[Restaurants, Chinese]",Pittsburgh,40.3919558,-79.9874081,Hunan Wok Chinese Takeout,11,3.0
57,BNeS_hZfmdQWsqewj-LuDA,"[Taiwanese, Szechuan, Chinese, Restaurants]",Pittsburgh,40.5531627166,-80.0155167018,Ting's Kitchen,34,4.5
58,GTB4esadYFFyLTJX9OqNdw,"[Chinese, Dim Sum, Restaurants]",Charlotte,35.2562941,-80.7911635,Dragon Court,31,3.0
59,m5MaRXA1rNX1n1Kbr8-Sog,"[Chinese, Food, Restaurants]",Pittsburgh,40.4270707,-79.8905657,How Lee,4,2.5
60,RP3MFwBjZV7SLFKvh4Ipeg,"[Restaurants, Chinese]",Charlotte,35.210968,-80.687592,China Saute,18,3.0
61,CzUUmNWYINyh4y0_7_elpA,"[Restaurants, Chinese]",Charlotte,35.147409,-80.745722,Yen's Chinese Restaurant,5,3.5
62,ZKBUoCqTpwMtmImz64DGyQ,"[Restaurants, Chinese, Thai]",Pittsburgh,40.437018,-79.997166,Hong Kong Express II,4,3.0
63,V6MWAv-xv4dgSUrDU1qxaA,"[Noodles, Thai, Asian Fusion, Italian, Caterers, Restaurants, Chinese, American (Traditional), Event Planning & Services]",Charlotte,35.059113,-80.8138,Nothing But Noodles,74,3.5
64,vYCBkwsQrdpb-RbkjWqG-w,"[Chinese, Chicken Wings, Restaurants]",Charlotte,35.160758,-80.876394,Wing Heaven,13,4.0
65,lSxAQR1FeSljX9zeVJTEWA,"[Restaurants, Chinese]",Pittsburgh,40.3773782,-80.0037775,Silver Palace Chinese Restaurant,15,4.0
66,e8cFfRySb8n9lMXRnyzeIA,"[Restaurants, Chinese]",Charlotte,35.137593,-80.73942,New Chin Chin,8,3.0
67,8PNXDkWz3hyZFi7E4tYhjw,"[Chinese, Restaurants]",Charlotte,35.1608893,-80.8492598,DragonFly,55,3.5
68,QQSlx-l_cfwkVrNwjV_HgQ,"[Chinese, Restaurants]",Pittsburgh,40.5099902,-80.0950281,House of Lee Restaurant,25,3.0
69,gz87Wa7QUZ3gNlgE9NVPAA,"[Restaurants, Chinese]",Pittsburgh,40.4303781,-79.9772139,Chan An Restaurant,6,3.0
70,u540gB8nSBDZez-Kb76G9w,"[Nightlife, Restaurants, Chinese, Food, Sushi Bars, Bars, Juice Bars & Smoothies]",Pittsburgh,40.3492314412,-80.051917224,Laughing Buddha Bar,18,4.0
71,yVPiqeEWOzJuskp5G-twRw,"[Chinese, Restaurants, Fast Food]",Charlotte,35.2214228,-80.9437985,Manchu Wok,12,1.0
72,nzT22B3ad9L0oF2hVYXr8Q,"[Asian Fusion, Chinese, Restaurants]",Charlotte,39.663248,-86.1833998,Hop Feng 2,16,4.0
73,LKuzbx5Yt3yqiokUFdjVhg,"[Korean, Chinese, Restaurants]",Charlotte,35.1373093,-80.8784632,China Wing,71,4.0
74,KMptXD2fDMcqCmkpkpRVQQ,"[Chinese, Beer, Wine & Spirits, American (Traditional), Food, American (New), Restaurants]",Charlotte,35.279503,-80.767024,Cottage,4,2.0
75,ndq4rJcFLMbMGU_gK5u79Q,"[Restaurants, Chinese]",Pittsburgh,40.438467,-79.9887849,China Wok,22,3.5
76,s4M4QcJvxJ5IY0DQJo-sCA,"[Chinese, Food, Tea Rooms, Mongolian, Sandwiches, Soup, Restaurants, Salad]",Pittsburgh,40.4577813,-79.9279191,Leaf and Plate,7,5.0
77,5zzuzWbt9_YrL95EIHobLA,"[Restaurants, Chinese]",Charlotte,35.2830545513,-80.6679951348,Best China,20,3.0
78,64ZPMllrqdrVNXMEQIvXhw,"[Seafood, Restaurants, Chinese, Food, Barbeque, Specialty Food, Soup, Ethnic Food]",Charlotte,35.09536,-80.7783134,Cherry Blossom Chinese Restaurant,35,2.0
79,e7M2GgkCfDYTxdPN1LL1sQ,"[Chinese, Restaurants]",Pittsburgh,40.4620394,-79.9491655,Wai Wai Chinese Cuisine,106,3.5
80,kKCJvvktaKxZ5iFKv3lxuA,"[Fast Food, Asian Fusion, Chinese, Gluten-Free, Restaurants]",Charlotte,35.0553914,-80.8517026,Pei Wei,88,4.0
81,1LNHq2MRI2J5gyfeVDPHVg,"[Acupuncture, Traditional Chinese Medicine, Health & Medical, Massage Therapy]",Charlotte,35.208863,-80.854961,"Chuck  Hipple, MSAc",7,4.5
82,2DO-8SvPvx1rACloHiD9Mw,"[Restaurants, Chinese]",Charlotte,35.052923,-80.814983,Lotus Cafe Chinese Cuisine,22,3.0
83,6PtDrXXQK9JyrN7M4nvZyA,"[Restaurants, Chinese]",Charlotte,35.1638454,-80.7390821,Fortune Cookie Chinese Restaurant,11,3.5
84,xULATz2siGXOPia614mg2A,"[Korean, Noodles, Japanese, Restaurants, Vegetarian, Chinese]",Pittsburgh,40.4451455,-79.9490518,Lulu's Noodles,332,3.0
85,N0L1C5K9ViBD58vig5sahw,"[Restaurants, Chinese]",Pittsburgh,40.4436281744,-80.004809091,Little China,3,3.5
86,go623pgRx2nfIpsV4ePHXg,"[Chinese, Restaurants]",Pittsburgh,40.5482139,-80.0355079,Great Wall,13,3.5
87,_AKdBFzkl7GY-daxUCCbVA,"[Asian Fusion, Restaurants, Gluten-Free, Chinese]",Pittsburgh,40.4394697671,-80.1505140731,P.F. Chang's,50,3.0
88,tyCIs0pyyw36apAXdR26WQ,"[Chinese, Restaurants]",Pittsburgh,40.3569591,-80.0518073,China Gate,17,2.5
89,gDQlaDRAjsCx2p_p6oJLjw,"[Chinese, Restaurants]",Pittsburgh,40.4225625,-79.9285951,China Star,46,3.0
90,NxHLCT3PuylmuEDOsZfxWg,"[Chinese, Restaurants]",Charlotte,35.1389319585,-80.934047699,Pan China Cafe,11,2.5
91,O5MzWfMWDeEwkzNVeKdCfg,"[Restaurants, Chinese]",Pittsburgh,40.4541341,-79.9981189,China Taste,12,4.0
92,rV4hP5CdpsokQyMjsqxB0Q,"[Ramen, Japanese, Restaurants, Chinese]",Charlotte,35.0558044654,-80.853271824,Sake Japan,13,3.0
93,ccdcyzc1oSucd-qRlnYR0w,"[Chinese, Restaurants]",Pittsburgh,40.4520131,-79.9516942,New China Inn,13,1.5
94,GhGYQ5WI4LdH53591fUMMA,"[Chinese, Restaurants, Asian Fusion]",Charlotte,35.1716684,-80.8492639,WAM Asian Grill,23,2.5
95,Oi-u4KqrcZbIWSYKnh7mJA,"[Chinese, Restaurants]",Charlotte,35.1362054,-80.9369244,Fortune Cookie II,56,3.5
96,nNz_7luh2aD1_U9N3tJUMA,"[Chinese, Restaurants]",Charlotte,35.139895,-80.8782389,Fortune Garden Chinese Restaurant,16,3.0
97,Qn5QMHOV6f5uHbxvrTPGRA,"[Event Planning & Services, Food Trucks, Food, Noodles, Food Delivery Services, Caterers, Specialty Food, Restaurants, Chinese, Ethnic Food, Szechuan]",Charlotte,35.2263714,-80.7990185,The Dumpling Lady,21,4.5
98,qThJY-H6Fo8HvfdIvwrjiw,"[Chinese, Restaurants]",Pittsburgh,40.5207492,-80.033128,Yeung's House,36,4.5
99,N9JASBwB9kWtK0_EjTa1nw,"[Chinese, Restaurants]",Pittsburgh,40.439176,-80.071117,Chan An Restaurant,13,4.0
100,N9o1UKmI0Ng1qYkTBTxHmA,"[Restaurants, Thai, Sandwiches, Chinese, Noodles]",Charlotte,35.1442674488,-80.9332256894,Noodles & Company,14,3.0
101,7-Wlpm30PGCBIZtH2rOlew,"[Chinese, Restaurants, Vietnamese, Thai]",Pittsburgh,40.4512474328,-79.9514841288,Miss Saigon88,25,3.5
102,3buPFDqdstemNGAGHDWPaw,"[Chinese, Restaurants]",Charlotte,35.225825,-80.846495,China King,6,3.0
103,BY1_pf7FHUycHOwYEenDlQ,"[Restaurants, Chinese]",Pittsburgh,40.416347,-79.8480465,Hunan's Palace,22,3.5
104,RvwZqjdkZ_pER0moPXLZAQ,"[Cafes, Food, Restaurants, Bubble Tea, Coffee & Tea, Chinese, Taiwanese]",Pittsburgh,40.4378411,-79.9201088,Rose Tea Cafe,291,3.5
105,hf2oiNqYYWoF2-iNYSnOMg,"[Chinese, Restaurants]",Charlotte,35.21051,-80.690262,China Fun,22,3.5
106,ed1KHQwsAYyFDrlUdwqJBA,"[Restaurants, Chinese]",Charlotte,35.2391283,-80.7983616,China Bowl,10,3.0
107,-UjCvAsvBOr19y8lqPueiQ,"[Chinese, Restaurants]",Pittsburgh,40.4579893,-79.9181411,China Garden,17,3.0
108,9Zhiktm7_LYN_uxaT9XEhg,"[Restaurants, Chinese]",Charlotte,35.0529811,-80.7707695,The Wok,27,3.0
109,9gQyf3h7XK0lKJYLGcIYlA,"[Restaurants, Chinese]",Charlotte,35.3450737,-80.8871383667,Fu Shing II,12,3.5
110,jDZJsIyc3jXjcTtJk_p8ZA,"[Chinese, Restaurants]",Pittsburgh,40.4446795,-79.9481851,Orient Express,82,3.0
111,ujYrcaXEbxj3KH9r0-FgWg,"[Chinese, Restaurants]",Charlotte,35.1841786,-80.7297463,China Taste,8,3.0
112,fHkiH52AATeRa8Fi2yStpQ,"[Japanese, Asian Fusion, Sushi Bars, Chinese, Restaurants]",Charlotte,35.3346884,-80.8135014,Golden Taipei,67,3.5
113,fjE-jiwnTQysz-rLl6YMQg,"[Chinese, Restaurants]",Pittsburgh,40.3948843,-80.0346894,Amazing Wok,34,4.0
114,EhlOUjd2dh52SV_XfoORSA,"[Chinese, Restaurants]",Pittsburgh,40.3796549065,-80.0448643438,Sesame Inn Chinese Restaurant,57,3.5
115,heyU2rq-K2soH-V0SVMHVQ,"[Chinese, Restaurants, Asian Fusion]",Charlotte,35.17651,-80.79965,Mama Fu's Asian House,29,3.0
116,0It4d0eFPJ5UnQqe6g2Z3w,"[Chinese, Buffets, Restaurants]",Pittsburgh,40.428485,-80.0525261,China Buffet King,21,2.5
117,AZ_iSVHQdBiCTnMolLTg3Q,"[Buffets, Asian Fusion, Restaurants, Chinese]",Pittsburgh,40.458013,-79.917439,China Buffet,5,2.0
118,toc31C-Qy2smSq0A7Q8FgA,"[Chinese, Restaurants]",Pittsburgh,40.4834344,-79.9489214,China Lin,14,3.5
119,A5Xd85djipsW546Bq6qIYA,"[Restaurants, Chinese]",Pittsburgh,40.430520655,-80.0075236051,Sesame Garden,38,4.0
120,RAKSBqeNb-p_ZABwAWH_jA,"[Sushi Bars, Restaurants, Chinese, Japanese]",Charlotte,35.1759873,-80.79712,Koishi Restaurant & Sushi Bar,93,3.5
121,HVYzoYynIH9lZiwnCaPngQ,"[Chinese, Restaurants]",Charlotte,35.117274,-80.856801,Shanghai Restaurant,3,4.0
122,1czIVv2iyOHc3WMgtUWXCQ,"[Wine Bars, Nightlife, Chinese, Bars, Asian Fusion, Restaurants, Vietnamese, Food, Persian/Iranian, Beer, Wine & Spirits]",Charlotte,35.2,-80.852472,Persuasian Restaurant,67,4.0
123,qaJ-HewyVAQCQ8C_KveZ4g,"[Chinese, Restaurants]",Charlotte,35.327294,-80.738805,China Cafe,48,3.0
124,zkW7OAv8Cnb-3SxEBOubTQ,"[Restaurants, Chinese]",Pittsburgh,40.414095,-79.855779,Zhen Choo Chinese Restaurant,5,4.0
125,ydUqgWsF3F27TbauOyib0w,"[Chinese, Restaurants]",Charlotte,35.2372325,-80.7371183,Panda's Den,30,4.0
126,zRr45TrTgq8XAKwvjM0W_Q,"[Restaurants, Chinese]",Charlotte,35.217713,-80.792554,Vanloi Chinese Barbecue Restaurant,3,4.0
127,PN6YCsAdFHcHST9vPaxIuw,"[Chinese, Restaurants]",Pittsburgh,40.4434132,-79.9961509,Liang's Hunan Restaurant,7,1.5
128,67FzueRMlcTQV3Nuep2qPw,"[Restaurants, Chinese]",Charlotte,35.334982,-80.7948513,Lotus Chinese Cuisine,18,3.0
129,Pgay5a3ZPZB_5ijSHAGoyA,"[Restaurants, Chinese]",Charlotte,35.2345297,-80.7376363,Golden Gate Express,4,3.5
130,xEIqG7Rq8ydAT9LxCVBOOg,"[Chinese, Asian Fusion, Thai, Restaurants]",Charlotte,35.3373791251,-80.9351536826,Red Bowl Asian Bistro,50,3.0
131,m9x3lP68vCe9EOB7EcA1lg,"[Restaurants, Chinese]",Charlotte,35.0910095654,-80.8692635023,Asian Wok,9,3.5
132,iT9KMTR8NqYwSCW-zMUOxw,"[Restaurants, Chinese, Taiwanese, Sushi Bars]",Pittsburgh,40.4876529256,-79.8806163564,Tai Pei,51,3.0
133,_VYUU5HPLYasd-xdKLimNA,"[Restaurants, Chinese]",Pittsburgh,40.369991,-80.034378,Castle Place,5,4.0
134,LxgronMsFYjxIfRojmVdYw,"[Chinese, Restaurants]",Charlotte,35.1170886007,-80.8251102337,Lotus II Chinese Cuisine,23,3.0
135,gFyntTks-Qd5CjDU8_2Kog,"[Buffets, Restaurants, Chinese]",Pittsburgh,40.4427692,-79.9970479,Golden Palace Buffet,27,3.0
136,j3lG-ZqQXUQl-ImNcWHbVQ,"[Restaurants, Chinese]",Charlotte,35.349951,-80.8431219,Lin's Buffet,16,2.5
137,B3H60GaBic12F4VLBi7-9A,"[Chinese, Restaurants]",Charlotte,35.3066473,-80.8404342,Pagoda Chinese Restaurant,11,2.5
138,j2kjfjODIZyNPxAu1Dow6A,"[Chinese, Buffets, Restaurants]",Pittsburgh,40.4114496186,-80.0066622957,Old Town Buffet,45,3.0
139,UslSiDSUTCaq62FMpWK6Lw,"[Chinese, Restaurants]",Pittsburgh,40.5428252,-80.0075487,China Max,6,3.0
140,iuIkzvQRb4DVWOMhE4GI3g,"[Chinese, Asian Fusion, Restaurants, Sushi Bars]",Pittsburgh,40.452805,-80.168932,Ya Fei,55,4.0
141,_EGWxiD27k3ahcFpmbSjQg,"[Chinese, Restaurants]",Pittsburgh,40.4146974,-79.9876465,Great Wall Chinese Food,4,3.5
142,kbq9QlIprqKpIWXZEXtGSA,"[Restaurants, Chinese]",Pittsburgh,40.4653138638,-79.8273912137,No 1 Chinese Kitchen,11,3.0
143,VGxJbglGlx-a7Gdc55Q6jQ,"[Restaurants, Japanese, Sushi Bars, Chinese]",Pittsburgh,40.3899009,-80.0406617,Katana,106,3.5
144,O8Nh1NB9Gbtq6xjd9oeI3A,"[Restaurants, Chinese, Vietnamese]",Charlotte,35.2105343048,-80.7806946613,Pho Hong,45,4.5
145,vYRxMRpdUES85ZEpiQwjgg,"[Chinese, Restaurants]",Pittsburgh,40.4601359,-79.8662771,Chopstick House,3,4.5
146,OnGPegQGuQ5_uuFLvezvKw,"[Japanese, Restaurants, Chinese]",Charlotte,35.177439,-80.798697,Shun Lee Palace,67,2.5
147,7rh29SPJMkyeI2BJcjqzLQ,"[Chinese, Restaurants]",Charlotte,35.2134281938,-80.8555153012,Beijing Chinese Cuisine,68,3.5
148,wcFscp4-QH0PJeIW1EOQEQ,"[Restaurants, Chinese, Japanese]",Charlotte,35.1196604,-80.9567161,Wang & King Asian Cafe,53,3.0
149,QnD4hpjwW8QySEh2R_UHpQ,"[Chinese, Restaurants]",Charlotte,35.1348212,-80.9404234,Royal Panda,17,3.0
150,FY71JKLl44HVLjO1xJl9dA,"[Chinese, Buffets, Restaurants]",Charlotte,35.1631658,-80.8854741,Royal Buffet,3,2.5
151,REzVrw0MaOaYkA7YQe_xFg,"[Restaurants, Chinese]",Charlotte,35.2243171,-80.7275346,Fast Wok,5,2.5
152,KYxiIkANSVjLhdO939GK6A,"[Tea Rooms, Chinese, Restaurants, Food]",Charlotte,35.117001,-80.961721,China Tea Room,25,3.5
153,EtrZ4fDhhKhs10iQmtKeKA,"[Acupuncture, Health & Medical, Traditional Chinese Medicine]",Pittsburgh,40.38177,-80.045186,Chinese Acupuncture & Herbs Center LLC,3,5.0
154,wJnhUJCOYkncLPZAwaMffA,"[Sushi Bars, Asian Fusion, Restaurants, Chinese]",Charlotte,35.2270964,-80.8438287,Room 112,190,3.5
155,TkXmhC7ZDA5H2tebIXH2_Q,"[Buffets, Restaurants, Chinese]",Charlotte,35.204845,-80.721379,Ichiban Buffet,20,3.0
156,KljAJzE4WuV1ay503jjP6w,"[Restaurants, Chinese]",Charlotte,35.310182,-80.7157703,Chopsticks,22,2.0
157,a0Jm-rlHOKk_1fm4hzxskg,"[Restaurants, Chinese]",Charlotte,35.088596,-80.861458,Wan Fu,115,4.0
158,MQTP7970k0HAODSIHTFt0w,"[Traditional Chinese Medicine, Health & Medical, Acupuncture]",Charlotte,35.214522,-80.861023,Acupuncture of the Carolinas,9,5.0
159,n_rEQNgsCOLNfMzGqFhn1g,"[Cocktail Bars, Bars, Buffets, Restaurants, Event Planning & Services, Caterers, Seafood, Chinese, Nightlife, Asian Fusion]",Charlotte,35.08565,-80.847489,Great Wall Of China South,104,3.5
160,nMo0ozHO7cqsPaxw_7N6ow,"[Restaurants, Dim Sum, Chinese]",Charlotte,35.2176223,-80.7946219,Dim Sum Chinese Restaurant,147,3.0
161,7U73RqIg6JA0WThxWUV3uA,"[Szechuan, Chinese, Asian Fusion, Restaurants, Bars, Sushi Bars, American (Traditional), Nightlife]",Pittsburgh,40.3805093215,-80.0448062271,Jade Grille,125,4.0
162,LTF14u6dfIyJQ41P-FooiA,"[Restaurants, Chinese]",Pittsburgh,40.3423865,-79.9841118,China Cafe,10,4.0
163,aHVhlCvmlNnnPf-LgclNNA,"[Restaurants, Chinese]",Pittsburgh,40.4313077145,-80.0019075326,Sesame Inn Chinese Restaurant,28,3.5
164,uNMQV-r1nO5dfGSGnVTFUA,"[Restaurants, Chinese]",Pittsburgh,40.4218885,-79.992839,No 1 China House,4,3.0
165,cxVp-a28Cp7lavjaPMvK5w,"[Restaurants, Chinese, Asian Fusion, Sushi Bars, Japanese]",Pittsburgh,40.4440719,-80.0003438,Social House Seven,48,3.5
166,Q3zZTpHQBSbiPq2lLaTtgw,"[Ethnic Food, Food, Chinese, Restaurants, Specialty Food, Imported Food, Szechuan]",Pittsburgh,40.4623662678,-79.8267316637,Sichuan Palace,10,4.5
167,PTDMAKBZze2QpZPc8mQD0w,"[Restaurants, Chinese]",Charlotte,35.0895921,-80.8604778,Quick Wok,7,2.0
168,wC-wLFVCIjXArsrMuUJdYQ,"[Chinese, Restaurants]",Charlotte,35.372159,-80.782485,Hunan Park,40,4.0
169,hcFSc0OHgZJybnjQBrL_8Q,"[Restaurants, Noodles, Chinese, Vegetarian]",Pittsburgh,40.4381401,-79.9201014,Everyday Noodles,415,4.0
170,MwsGayIlUkXQ46mkmV3jlA,"[Chinese, Restaurants]",Pittsburgh,40.489196,-79.7771519,Wok In Heaven,9,3.0
171,mI2GqBeadATqOkLPhDNOfQ,"[Chinese, Restaurants]",Charlotte,35.2244979,-80.84104,China Shuttle,4,1.5
172,qf4w82L2F7xJwh1i82uYHA,"[Restaurants, Chinese]",Charlotte,35.3521284,-80.8512352,Yeung's Lotus Express,5,3.0
173,vSB8Yrz0KslzqnlPEBfqNA,"[Restaurants, Taiwanese, Chinese]",Charlotte,35.1069699,-80.806871,Tomi Chinese Restaurant,9,4.0
174,uBs1-3FNDhKN-BBP27erFw,"[Restaurants, Chinese]",Charlotte,35.2283649,-80.842652,Rice Inc - Chinese Cuisine,5,2.0
175,QnJmteSnJgEc7PfJ45imOg,"[Chinese, Restaurants]",Charlotte,35.212433,-80.7836839,Little China Restaurant,6,2.0
176,LLGGe9k7NTVy1Z2wH1_Uew,"[Chinese, Restaurants]",Pittsburgh,40.4394727,-79.9582437,Tong's Cuisine,28,3.5
177,BsLyCu_lkEdkG42qmvZlnQ,"[Chinese, Restaurants, Asian Fusion, Sushi Bars, Pan Asian]",Pittsburgh,40.4595304893,-79.9255426413,Plum Pan Asian Kitchen,154,3.5
178,ImpLykh7PV5I5Oabe3_NSw,"[Fast Food, Chinese, Restaurants]",Charlotte,35.171028,-80.849435,Lai Lai Express,23,3.5
179,o2UAUbXSNRrqleXtSMLniA,"[Chinese, Restaurants]",Pittsburgh,40.4665086,-79.9539413,Forever Rosemary,3,2.5
180,dyaSQBKagPYylOJxsU8CMA,"[Restaurants, Chinese]",Pittsburgh,40.4571291,-79.9334864,Jimmy Tsang's Chinese Restaurant,11,3.0
181,LbeJgPgKKHw5qH0f02NHEQ,"[Chinese, Restaurants]",Pittsburgh,40.4371064013,-79.9973292903,Chinatown Inn,94,4.0
182,ZhdbnIScQfeYh9upMbK0lQ,"[Chinese, Restaurants]",Charlotte,35.270702,-80.937229,Wok Bo Chinese Restaurant,9,1.5
183,aqszoKRB4Ol9bpemt0_-GQ,"[Asian Fusion, Chinese, Restaurants]",Charlotte,35.2274789984,-80.8404318988,Soho Bistro,119,3.5
184,g-ftCJsLjDZgYzrjUf7gng,"[Chinese, Restaurants]",Charlotte,35.191136,-80.797266,Hunan Express Chinese Restaurant,9,3.5
185,VCqlP9aEIFe7vfgXWpZs3g,"[Chinese, Restaurants]",Charlotte,35.2400238,-80.8980594,Cottage 2,9,2.5
186,mQCT1psNh2pJT38ohSQDHA,"[Chinese, Japanese, Restaurants, Sushi Bars]",Charlotte,35.1161412619,-80.9587213397,Japan 49,21,4.0
187,o5rtJcyJ6xje1PFj_rhRTA,"[Restaurants, Chinese]",Pittsburgh,40.4306144,-80.0075896,Golden Palace Chinese Restaurant,9,2.0
188,xgZMO4BHn1TCn7hZ62SaiA,"[Restaurants, Chinese]",Charlotte,35.215975,-80.828428,Fortune Cookie,36,3.5
189,u-urH3ZDub-EkXe4frPkaQ,"[Restaurants, Chinese]",Charlotte,35.3061142,-80.8601376,Tung's Chinese Restaurant,4,1.0
190,67IWr5jwskv0-RwWAhkTaA,"[Restaurants, Chinese, American (Traditional), Italian, Noodles, Thai, Comfort Food, Asian Fusion]",Charlotte,35.0984229,-80.780416,Noodles & Company,19,3.0
191,ryCpLx4jaTkkkaGXg5jvBQ,"[Restaurants, Chinese]",Charlotte,35.1280702,-80.8748682,Cherry House II,30,2.5
192,AYr2URtjoQ8Toh8_Jr4G6A,"[Restaurants, Bubble Tea, Food, Chinese, Taiwanese]",Pittsburgh,40.444838,-79.9488538,Rose Tea Cafe,51,2.5
193,X4YG1pu1MDVSi07S3i4YCA,"[Burmese, Restaurants, Chinese]",Pittsburgh,40.4333064,-79.9231271,Zaw's Asian Foods,53,4.0
194,YufWhkZQPC6As55MuXTU8g,"[Restaurants, Chinese]",Pittsburgh,40.405382,-79.9909347,No. 1 Kitchen,4,3.0
195,i17-RGooGWIad0y5YtaBtQ,"[Chinese, Restaurants]",Pittsburgh,40.462831,-79.9516804,China House,20,4.0
196,u7fc6_zgJEnEq3rEkC1gBg,"[Chinese, Restaurants]",Pittsburgh,40.4341822,-79.9230114,Chop Sticks,4,3.0
197,eC-duRpbiVsCD14oGYiDOA,"[Japanese, Chinese, Thai, Sushi Bars, Restaurants, Asian Fusion]",Pittsburgh,40.4718139,-79.9598553,Restaurant Hana,20,4.0
198,TcGmeeNvbcvnQVmVmlWxlA,"[Chinese, Restaurants, Fast Food]",Charlotte,35.3503227234,-80.8428878784,China Go Go,8,3.0
199,xUsLyzWQId6nXwNDVq08qQ,"[Chinese, Restaurants]",Pittsburgh,40.368626,-79.983,Lotus Garden,5,3.5
200,dWB0HT1nXQ2N8n3bvPKJuQ,"[Sushi Bars, Chinese, Restaurants]",Pittsburgh,40.3527436,-80.051873,John's Chinese & Sushi Restaurant,30,4.0
201,BZ8nUf9R4sa1S-9sU6AjRg,"[Chinese, Restaurants]",Charlotte,35.1033211,-80.9908799,China Town,13,3.5
202,o8nauTizH7H_GEAeV6HfMg,"[Chinese, Indian, Restaurants]",Charlotte,35.042024,-80.862628,Hyderabadi Biryani House,80,3.5
203,NG5qynmV0kzxQMFJG7mhEw,"[Chinese, Restaurants]",Pittsburgh,40.4967498,-79.9436563,Hong Kong Taste,10,2.5
204,vgc-XO64Uw7otc3sxmns1A,"[Sushi Bars, Japanese, Thai, Chinese, Restaurants]",Charlotte,35.0683792,-80.8422187,Tsuki House Japanese Steak House and Sushi Bar,62,3.5
205,MBirSnTW4pt2k7Ny6KC72w,"[Szechuan, Chinese, Restaurants]",Pittsburgh,40.4417932,-79.9571431,Szechuan Express,57,3.0
206,QmNrHxN7UahtdliH_kAuUg,"[Chinese, Restaurants, Cantonese]",Pittsburgh,40.4324863,-79.9228558,Ka Mei,65,3.5
207,EbgUkmDxPUa2fr0rc8EFJQ,"[Asian Fusion, Restaurants, Gluten-Free, Chinese]",Charlotte,35.146916,-80.827256,P F Chang's,133,3.0
208,74wRr6PP6lbaL1YzUcYGAA,"[Restaurants, Buffets, Chinese]",Pittsburgh,40.4408628,-79.9581821,Golden Palace Buffet,33,3.0
209,bCa0CY4F74N5lCEVOquKkg,"[Salad, Food, Asian Fusion, Restaurants, Nightlife, Dim Sum, Chinese, Sandwiches, Noodles, Bars]",Pittsburgh,40.442035,-80.002556,G & G Noodle Bar,280,4.0
210,K6AKMjAdCSe8xllsbyeL9Q,"[Bubble Tea, Food, Tea Rooms, Chinese, Restaurants, Fast Food]",Pittsburgh,40.4427240454,-79.9528134937,Asia Tea House,33,3.0
211,odfX0wO7fOyqa8oobxh96w,"[Restaurants, Chinese]",Pittsburgh,40.4428479,-80.0031124,Fu Lai Chinese Restaurant,29,2.5
212,WLCdg4ib7-_7b8epoXRjAw,"[Restaurants, Chinese]",Charlotte,35.2123711,-80.8171636,Ho Ho Cherry House,88,3.5
213,j3SHAiF8OIlY3kUPnAAlKw,"[Chinese, Restaurants]",Charlotte,35.341155,-80.764657,House of Leng,63,3.5
214,R8U89M5NjaL9wf-6k4H1xQ,"[Chinese, Restaurants]",Charlotte,35.0531218,-80.84715,Chef Kwo,29,3.5
215,p2X4WdGMsi26t_6hN3Hz4w,"[Asian Fusion, Chinese, Vietnamese, Soup, Restaurants]",Pittsburgh,40.3957392,-80.0348476,Mekong Restaurant,50,3.5
216,7LlND5b0bjWylNBNQ-oZMA,"[Restaurants, Chinese]",Pittsburgh,40.38892,-80.049921,Green Garden,15,3.0
217,On5sceeptZSlLeGWDDGiwQ,"[Restaurants, Chinese]",Charlotte,35.2120931,-80.8337738,Emperor Chinese Restaurant,22,2.0
218,WCkh_ZcsWKU1wx4bqyU9KA,"[Taiwanese, Chinese, Restaurants]",Charlotte,35.0929369,-80.8592044,Taipei South,65,4.0
219,1MrJJ9tyNyfFrxaNZ67xFg,"[Restaurants, Chinese, Sushi Bars, Steakhouses, Japanese]",Pittsburgh,40.3591070736,-80.0020897818,Silk Road,85,4.0
220,wNgzPOtnHE1prmh3bzWR1g,"[Restaurants, Chinese]",Charlotte,35.3432482,-80.7690779,The Golden Coast II,10,2.5
221,KF1ngA96RBiRM5h8V7IQ2g,"[Food, Restaurants, Taiwanese, Chinese, Ice Cream & Frozen Yogurt]",Pittsburgh,40.4381461,-79.9223846,Cool Ice Taipei Kitchen,30,4.0
222,mqiHZYNXnMLaEK87JZOzmA,"[Restaurants, Chinese]",Pittsburgh,40.458497,-79.9246661,Tasty Chinese Restaurant,24,3.0
223,x0nPQOsfh_fy43-M-iCbRA,"[Restaurants, Chinese]",Charlotte,35.137593,-80.73942,Chin Chin,4,3.0
224,VUDwlypqw1-DTK_lfEP4jg,"[Buffets, Restaurants, Chinese]",Pittsburgh,40.441887,-80.07068,Panda,5,2.5
225,S6dARuOrrOXd4xSiTHti8g,"[Seafood, Soup, Restaurants, Chinese]",Pittsburgh,40.4295421035,-79.9223725553,Chengdu Gourmet,59,3.5
226,KxqAQ-CJcAPDTJbrnQUTfg,"[Restaurants, Chinese]",Charlotte,35.2328099009,-80.849314828,Great Wok,51,2.5
227,jhP9rUsV-KvgHu1n--7Q3w,"[Chinese, Restaurants]",Pittsburgh,40.5482139,-80.0355079,Khoo's Garden,16,3.5
228,ShnXvNkJKsDIQaGJeM0L6w,"[Restaurants, Specialty Food, Meat Shops, Barbeque, Chinese, Food]",Charlotte,35.2561847,-80.7911787,Hong Kong BBQ,7,4.0
229,y52rX6iyCjLTWxDjZq405g,"[Chinese, Restaurants]",Charlotte,35.2523791,-80.6574252,China Garden,10,3.5
230,Mge4KiFP09sWeKpbM6J65w,"[Restaurants, Chinese]",Pittsburgh,40.4488823,-79.9873238,Little Shanghai,7,4.5
231,5E37qENVklkwAMHmIwc_IA,"[Restaurants, Chinese]",Pittsburgh,40.3684469,-80.0130696,China Village,5,4.5
232,eW6HLU-M3xJOpGyKLrWxUg,"[Chinese, Restaurants, Thai]",Pittsburgh,40.3689607,-80.033156,Asian Cafe,14,3.5
233,8GC_bLQu_ui9a_Wtb335Jw,"[Chinese, Restaurants]",Charlotte,35.2644481,-80.8558779,Tops China Restaurant,3,3.5
234,afdthOntL8hfhomIFX-NWg,"[Sushi Bars, Chinese, Diners, Restaurants]",Pittsburgh,40.478345,-79.955425,Zen Asian Diner,63,3.0
235,odtLH4HI7i0TSbybja6qrQ,"[Chinese, Restaurants]",Charlotte,35.201622,-80.736859,Chin Chin,17,3.0
236,Q9veWOu7mFj881o3nqB4bQ,"[Seafood, Restaurants, Chinese, Soup, Sushi Bars, Hot Pot, Japanese, Asian Fusion]",Pittsburgh,40.4412353,-79.9581511,Top Shabu-Shabu & Lounge,60,3.5
237,qAzOcHnWerREl678su-p0A,"[Chinese, Restaurants, Japanese]",Pittsburgh,40.359115,-80.029173,Asian Garden,13,2.5
238,5wr_UtUUdF8L2UlaD1DhNQ,"[Chinese, Restaurants]",Pittsburgh,40.510544,-79.993672,Rice King,12,4.0
239,JJi7c7uiTzCqeWNTsldgXQ,"[Sushi Bars, Chinese, Restaurants]",Pittsburgh,40.3918384617,-80.0670470873,Red Tea House,48,4.0
240,oaTbZh8B-IVFEwbzJcIOBg,"[Japanese, Chinese, Restaurants, Sushi Bars, Asian Fusion]",Pittsburgh,40.4619795636,-79.704999769,Azan Wok,22,3.5
241,DwmAsemahJywywhuqv5J1Q,"[Szechuan, Chinese, Restaurants]",Pittsburgh,40.4389524203,-79.9551590459,Sichuan Gourmet,77,4.0
242,9BBWtaSvsootDkKTVBgv_A,"[Chinese, Japanese, Buffets, Restaurants, Asian Fusion]",Charlotte,35.129892,-80.944694,Jasmine Buffet,90,3.5
243,klQnFvxN7stIgYAvRylY0Q,"[Mongolian, Restaurants, Chinese]",Charlotte,35.2205241,-80.944528,Genghis Grill,71,2.5
244,BaHMCHFuuVpVUV_wOInnOA,"[Chinese, Restaurants]",Charlotte,35.042005026,-80.8624327183,Bamboo 7 Asian Cuisine,40,3.5
245,DId2r0a4C2ixCbuLApxx8g,"[Restaurants, Chinese]",Pittsburgh,40.4341822,-79.9230114,Chopstix,3,1.5
246,3PsmvwxetLz1Tzb-6mNhgA,"[Asian Fusion, Gluten-Free, Chinese, Restaurants]",Charlotte,35.3487926305,-80.8532595634,P.F. Chang's,150,3.5
247,3f2dKT9PgLipoNi6vebnDQ,"[Chinese, Restaurants]",Charlotte,35.2094516,-80.8355389,Fortune Cookie,15,2.5
248,QiZCMGZEwVtg1ybOKybLhQ,"[Chinese, Restaurants, Vietnamese, Japanese]",Pittsburgh,40.451222,-79.9515915,Kanda House,7,2.5
249,izOvku5li7kyzY76UzLP2g,"[Restaurants, Chinese]",Pittsburgh,40.4225729,-79.9285794,Yen's Gourmet,3,2.0
250,F1vdFYr7P4Xb3uAQ2AYgzQ,"[Dim Sum, Restaurants, Chinese, Asian Fusion]",Pittsburgh,40.5614199,-80.0245728,Empire Palace Asian Restaurant and Bar,48,3.5
251,5G0cEcOxAwoPOhGV_B5VlA,"[Restaurants, Chinese]",Charlotte,35.2029012,-80.7531859,China Jade,8,2.5
252,Dz4Y964X4ZJvydJPXPBmrg,"[Traditional Chinese Medicine, Health & Medical, Acupuncture]",Charlotte,35.239748,-80.845689,Charlotte Community Acupuncture,5,4.0
253,OHuo-yqHdtJMAnkNLyp34g,"[Restaurants, Chinese]",Pittsburgh,40.4665719645,-79.9538432776,Green Bamboo,6,4.0
254,IDW4QFw-fN_wk81G9OV-Mg,"[Gluten-Free, Fast Food, Asian Fusion, Restaurants, Italian, Salad, Food, Chinese, Noodles, Desserts, American (Traditional)]",Charlotte,35.213744,-80.8262381,Nothing But Noodles,62,4.0
255,so5zDDBvYTMjqpd0Tb8yqw,"[Thai, Chinese, Restaurants]",Charlotte,35.029324,-80.850153,Amazing Wok,22,3.5
256,YWm5z2mu-C-pUuL86fcFxQ,"[Restaurants, Chinese]",Charlotte,35.140593,-80.7376132,Best Wok,42,4.5
257,nVqOTTfDiu12xsQtFTO7_w,"[Restaurants, Food, Chinese, Convenience Stores]",Pittsburgh,40.4665129,-79.9538992,Green Bamboo,9,2.5
258,chBeDQdaZgrb8iOzqgeCDA,"[Restaurants, Chinese]",Charlotte,35.3121668,-80.7450891,China Palace,56,4.0
259,ZWbJlxV7sdxBBgyw_-4vVg,"[Chinese, Restaurants]",Pittsburgh,40.3850883,-79.9784211,Bai Ling Chinese Restaurant,5,5.0
260,XKOAi4J47i-YEhhHfKkPRQ,"[Restaurants, Chinese]",Pittsburgh,40.5109999,-79.9462827,China Garden,7,2.5
261,L8DX7Jxt5r6lS68AOG43hg,"[Chinese, Fast Food, Restaurants]",Charlotte,35.1681813,-80.8755221,Panda Express,23,3.0
262,tVzPchjHbqWjn8ng7giMiQ,"[Restaurants, Chinese]",Charlotte,35.2094947,-80.8355125,Wok Express Chinese Food,7,3.5
263,5jSwodZ2cLIgD0SLGXYbeg,"[Asian Fusion, Chinese, Restaurants]",Pittsburgh,40.430191,-79.8068118,City Buffet & Hibachi Grill,10,2.0
264,Oj_74Fa-VtFHXYTOWHMlsA,"[Restaurants, Chinese]",Pittsburgh,40.4783789,-79.9555457,Lucky Dragon Chinese Restaurant,8,3.0
265,7aZf5c1UNotq4MabBXMZLA,"[Chinese, Restaurants, Szechuan]",Pittsburgh,40.4358112,-79.923142,Sichuan Gourmet,204,4.0
266,Lw2vlPixPe72lDp9Cx6GoA,"[Chinese, Restaurants]",Pittsburgh,40.37317,-79.97514,Wang's Kitchen,26,4.0
267,Z-6QSR2lC-opp9l6HLYG_w,"[Chinese, Restaurants]",Pittsburgh,40.3518929,-80.050278,Lucky Chinese Express,3,3.0
268,vmaZcAK858vwIxEHz3JOXw,"[Chinese, Restaurants, Seafood]",Charlotte,35.2215815,-80.723541,Cottage Express,10,3.0
269,I_vzg2V92U7wdD61tvGtpg,"[Chinese, Restaurants]",Pittsburgh,40.391756,-80.017768,The Tong Garden,12,4.0
270,f2FfutZhb4F-m1Ob0EdYaw,"[Restaurants, Caterers, Event Planning & Services, Vegetarian, Food, Food Delivery Services, Chinese, Asian Fusion, Fast Food]",Pittsburgh,40.450866,-79.933919,China Palace,91,3.0
271,zXJilaBN28oUdX7Owf0fRA,"[Sushi Bars, Restaurants, Chinese, Japanese]",Pittsburgh,40.437766,-79.9196769,Sakura Teppanyaki & Sushi,89,3.0
272,ud45YT67UCbtNfRxNeR2Yg,"[Buffets, Restaurants, Chinese]",Charlotte,35.177329,-80.876766,Dragon House Chinese Buffet,33,3.0
